{
  "type": "FeatureCollection",
  "features": [
    {
      "type": "Feature",
      "geometry": {
        "type": "Point",
        "coordinates": [
           113.269998 ,23.117585
        ]
      },
      "properties": {
        "name": "广油鸡",
        "address": "越秀区北京南路左二巷6号",
        "phone": "13660625226"
      }
    },
    {
      "type": "Feature",
      "geometry": {
        "type": "Point",
        "coordinates": [
            113.243062,23.113484
        ]
      },
      "properties": {
        "name": "第一家猪脚姜",
        "address": "第十甫路57号旁吉鸿居4号"
      }
    },
    {
      "type": "Feature",
      "geometry": {
        "type": "Point",
        "coordinates": [
             113.241628, 23.115643 
        ]
      },
      "properties": {
        "name": "陈添记",
        "address": "宝华路十五甫三巷2号之二首层"
      }
    },
    {
      "type": "Feature",
      "geometry": {
        "type": "Point",
        "coordinates": [
          113.273207,
          23.119974
        ]
      },
      "properties": {
        "name": "广记掌亦煲",
        "address": "广东省广州市越秀区万福路154号宗德宾馆1层",
        "phone": "020-83333805"
      }
    },
        {
      "type": "Feature",
      "geometry": {
        "type": "Point",
        "coordinates": [
           113.270016 , 23.094737
        ]
      },
      "properties": {
        "name": "胜利厅",
        "address": "广州市海珠区江南西路66号润汇大厦3层",
        "phone": "(020)34283898"
      }
    },
      {
      "type": "Feature",
      "geometry": {
        "type": "Point",
        "coordinates": [
           113.332148 , 23.139016
        ]
      },
      "properties": {
        "name": "三人行法国西餐厅",
        "address": "信成南街5号1楼",
        "phone": "02038815325"
      }
    },
        {
      "type": "Feature",
      "geometry": {
        "type": "Point",
        "coordinates": [
           113.266194 ,23.110025
        ]
      },
      "properties": {
        "name": "裕华",
        "address": "广东省广州市海珠区南华东路550号解放桥引桥下",
        "phone": "(020)84426384"
      }
    },
    {
      "type": "Feature",
      "geometry": {
        "type": "Point",
        "coordinates": [
           113.294875 ,23.071914
        ]
      },
      "properties": {
        "name": "川西坝子火锅",
        "address": "瑞宝南路东晓南胜汇里商业步行街二楼(地铁站B出口对面)"
      }
    },

     {
      "type": "Feature",
      "geometry": {
        "type": "Point",
        "coordinates": [
           113.260440 ,23.123557
        ]
      },
      "properties": {
        "name": "雅苑餐厅",
        "address": "广州越秀区朝天路14号后座2楼",
        "phone": "(020)83355808"
      }
    },
    {
      "type": "Feature",
      "geometry": {
        "type": "Point",
        "coordinates": [
           113.303296, 23.219767
        ]
      },
      "properties": {
        "name": "贺庄柴灶鱼",
        "address": "广东省广州市白云区丛云路1018号",
        "phone": "020-22842998"
      }
    },
    {
      "type": "Feature",
      "geometry": {
        "type": "Point",
        "coordinates": [
           113.426193,23.114050
        ]
      },
      "properties": {
        "name": "贺庄柴灶鱼",
        "address": "广州市中山大道东85号与珠吉路1号交汇处"
      }
    },
    {
      "type": "Feature",
      "geometry": {
        "type": "Point",
        "coordinates": [
            113.271963, 23.118067
        ]
      },
      "properties": {
        "name": "九大簋家宴",
        "address": "广东省广州市越秀区珠光路131-1号"
      }
    },
    {
      "type": "Feature",
      "geometry": {
        "type": "Point",
        "coordinates": [
              113.541507, 23.093720
        ]
      },
      "properties": {
        "name": "安记鱼锅",
        "address": "黄埔东路南岗新街市2层",
        "phone": "13533030733"
      }
    },
    {
      "type": "Feature",
      "geometry": {
        "type": "Point",
        "coordinates": [
              113.364949, 23.200998
        ]
      },
      "properties": {
        "name": "十里香牛杂煲",
        "address": "广州市天河区龙路森林公园南侧100米处饺子皇旁边直入30米园对面迎福路(直入100米)",
        "phone": "13560447383"
      }
    },
    {
      "type": "Feature",
      "geometry": {
        "type": "Point",
        "coordinates": [
               113.279896,22.975498
        ]
      },
      "properties": {
        "name": "成记农庄鹿肉宴",
        "address": "石壁街道钟韦公路高铁桥底(钟村屠场公交站附近)",
        "phone": "02031068483"
      }
    },
    {
      "type": "Feature",
      "geometry": {
        "type": "Point",
        "coordinates": [
                113.381255, 23.120316
        ]
      },
      "properties": {
        "name": "平又鲜蟹馆",
        "address": "科新路351号(食神汇对面)",
        "phone": "13310899898"
      }
    },
    {
      "type": "Feature",
      "geometry": {
        "type": "Point",
        "coordinates": [
                113.287298, 22.785668
        ]
      },
      "properties": {
        "name": "河东私烤",
        "address": "佛山顺德区顺德新城区澄海路(近万科新城湾畔)",
        "phone": "(0757)22299008"
      }
    }
  ]
}
