{
  "type": "FeatureCollection",
  "features": [
    {
      "type": "Feature",
      "geometry": {
        "type": "Point",
        "coordinates": [-77.229335, 38.871794]
      },
      "properties": {
        "name": "JINYA Ramen Bar",
        "address": "2911 District Ave #140, Fairfax, VA 22031",
        "phone": "(703) 992-7656",
        "website": "jinya-ramenbar.com"
      }
    },
    {
      "type": "Feature",
      "geometry": {
        "type": "Point",
        "coordinates": [-77.023108, 38.917943]
      },
      "properties": {
        "name": "Haikan",
        "address": "805 V St NW, Washington, DC 20001",
        "phone": "(202) 299-1000",
        "website": "https://www.haikandc.com/"
      }
    },
    {
      "type": "Feature",
      "geometry": {
        "type": "Point",
        "coordinates": [-77.019595, 38.898599]
      },
      "properties": {
        "name": "Daikaya Ramen Shop",
        "address": "705 6th St NW, Washington, DC 20001",
        "phone": "(202) 589-1600",
        "website": "http://www.daikaya.com/"
      }
    },
    {
      "type": "Feature",
      "geometry": {
        "type": "Point",
        "coordinates": [-77.171345, 38.882851]
      },
      "properties": {
        "name": "Hot N Juicy Crawfish",
        "address": "116 W Broad St, Falls Church, VA 22046",
        "phone": "(703) 992-8700",
        "website": "hotnjuicycrawfish.com"
      }
    }
  ]
}
