{
  "type": "FeatureCollection",
  "features": [
    {
      "type": "Feature",
      "geometry": {
        "type": "Point",
        "coordinates": [113.274989, 23.102724]
      },
      "properties": {
        "name": "诚成煎饺",
        "address": "前进路基立南街14号之一之二"
      }
    },
    {
      "type": "Feature",
      "geometry": {
        "type": "Point",
        "coordinates": [113.36677, 22.942374]
      },
      "properties": {
        "name": "番禺宾馆",
        "address": "中国广东省广州市番禺区市桥大北路130号"
      }
    },
    {
      "type": "Feature",
      "geometry": {
        "type": "Point",
        "coordinates": [113.340792, 23.10755]
      },
      "properties": {
        "name": "清漫餐吧琶醍店",
        "address": "广东省广州市海珠区新港东路磨碟沙大街118号琶醍B区二楼"
      }
    },
    {
      "type": "Feature",
      "geometry": {
        "type": "Point",
        "coordinates": [113.32755, 23.090719]
      },
      "properties": {
        "name": "清心鸡沙田乳鸽店",
        "address": "海珠区赤岗路99号首层",
        "phone": "(020)84212384"
      }
    },
    {
      "type": "Feature",
      "geometry": {
        "type": "Point",
        "coordinates": [113.270398, 23.121757]
      },
      "properties": {
        "name": "周生记太爷鸡",
        "address": "文明路37号(北京路口)",
        "phone": "(020)83356168"
      }
    },
    {
      "type": "Feature",
      "geometry": {
        "type": "Point",
        "coordinates": [113.233152, 23.11877]
      },
      "properties": {
        "name": "竹园竹升面店",
        "address":
          "荔湾区黄沙大道荔枝湾风景区2期C4号铺(侨美唐荔园酒楼旁小路直入100米)",
        "phone": "18218707718"
      }
    },
    {
      "type": "Feature",
      "geometry": {
        "type": "Point",
        "coordinates": [113.338931, 22.908651]
      },
      "properties": {
        "name": "成记爬金山",
        "address":
          "广州番禺区沙湾镇东村经述路沙场巷二横巷9号(青萝市场前50米右转)",
        "phone": "(020)84731600"
      }
    },
    {
      "type": "Feature",
      "geometry": {
        "type": "Point",
        "coordinates": [113.256482, 23.114365]
      },
      "properties": {
        "name": "林记粥品店",
        "address": "越秀区海珠南路157号(大新路同一德路之间,近陈仲生牙科诊所)",
        "phone": "(020)88909356"
      }
    },
    {
      "type": "Feature",
      "geometry": {
        "type": "Point",
        "coordinates": [113.315727, 23.140546]
      },
      "properties": {
        "name": "东兴饭店",
        "address": "广东省广州市天河区天河北路6-8号汉风大厦1楼(冰花酒店旁边)",
        "phone": "(020)38824101"
      }
    },
    {
      "type": "Feature",
      "geometry": {
        "type": "Point",
        "coordinates": [113.269998, 23.117585]
      },
      "properties": {
        "name": "广油鸡",
        "address": "越秀区北京南路左二巷6号",
        "phone": "13660625226"
      }
    },
    {
      "type": "Feature",
      "geometry": {
        "type": "Point",
        "coordinates": [113.243062, 23.113484]
      },
      "properties": {
        "name": "第一家猪脚姜",
        "address": "第十甫路57号旁吉鸿居4号"
      }
    },
    {
      "type": "Feature",
      "geometry": {
        "type": "Point",
        "coordinates": [113.241628, 23.115643]
      },
      "properties": {
        "name": "陈添记",
        "address": "宝华路十五甫三巷2号之二首层"
      }
    },
    {
      "type": "Feature",
      "geometry": {
        "type": "Point",
        "coordinates": [113.273207, 23.119974]
      },
      "properties": {
        "name": "广记掌亦煲",
        "address": "广东省广州市越秀区万福路154号宗德宾馆1层",
        "phone": "020-83333805"
      }
    },
    {
      "type": "Feature",
      "geometry": {
        "type": "Point",
        "coordinates": [113.270016, 23.094737]
      },
      "properties": {
        "name": "胜利厅",
        "address": "广州市海珠区江南西路66号润汇大厦3层",
        "phone": "(020)34283898"
      }
    },
    {
      "type": "Feature",
      "geometry": {
        "type": "Point",
        "coordinates": [113.332148, 23.139016]
      },
      "properties": {
        "name": "三人行法国西餐厅",
        "address": "信成南街5号1楼",
        "phone": "02038815325"
      }
    },
    {
      "type": "Feature",
      "geometry": {
        "type": "Point",
        "coordinates": [113.266194, 23.110025]
      },
      "properties": {
        "name": "裕华",
        "address": "广东省广州市海珠区南华东路550号解放桥引桥下",
        "phone": "(020)84426384"
      }
    },
    {
      "type": "Feature",
      "geometry": {
        "type": "Point",
        "coordinates": [113.294875, 23.071914]
      },
      "properties": {
        "name": "川西坝子火锅",
        "address": "瑞宝南路东晓南胜汇里商业步行街二楼(地铁站B出口对面)"
      }
    },

    {
      "type": "Feature",
      "geometry": {
        "type": "Point",
        "coordinates": [113.26044, 23.123557]
      },
      "properties": {
        "name": "雅苑餐厅",
        "address": "广州越秀区朝天路14号后座2楼",
        "phone": "(020)83355808"
      }
    },
    {
      "type": "Feature",
      "geometry": {
        "type": "Point",
        "coordinates": [113.303296, 23.219767]
      },
      "properties": {
        "name": "贺庄柴灶鱼",
        "address": "广东省广州市白云区丛云路1018号",
        "phone": "020-22842998"
      }
    },
    {
      "type": "Feature",
      "geometry": {
        "type": "Point",
        "coordinates": [113.426193, 23.11405]
      },
      "properties": {
        "name": "贺庄柴灶鱼",
        "address": "广州市中山大道东85号与珠吉路1号交汇处"
      }
    },
    {
      "type": "Feature",
      "geometry": {
        "type": "Point",
        "coordinates": [113.271963, 23.118067]
      },
      "properties": {
        "name": "九大簋家宴",
        "address": "广东省广州市越秀区珠光路131-1号"
      }
    },
    {
      "type": "Feature",
      "geometry": {
        "type": "Point",
        "coordinates": [113.541507, 23.09372]
      },
      "properties": {
        "name": "安记鱼锅",
        "address": "黄埔东路南岗新街市2层",
        "phone": "13533030733"
      }
    },
    {
      "type": "Feature",
      "geometry": {
        "type": "Point",
        "coordinates": [113.364949, 23.200998]
      },
      "properties": {
        "name": "十里香牛杂煲",
        "address":
          "广州市天河区龙路森林公园南侧100米处饺子皇旁边直入30米园对面迎福路(直入100米)",
        "phone": "13560447383"
      }
    },
    {
      "type": "Feature",
      "geometry": {
        "type": "Point",
        "coordinates": [113.279896, 22.975498]
      },
      "properties": {
        "name": "成记农庄鹿肉宴",
        "address": "石壁街道钟韦公路高铁桥底(钟村屠场公交站附近)",
        "phone": "02031068483"
      }
    },
    {
      "type": "Feature",
      "geometry": {
        "type": "Point",
        "coordinates": [113.381255, 23.120316]
      },
      "properties": {
        "name": "平又鲜蟹馆",
        "address": "科新路351号(食神汇对面)",
        "phone": "13310899898"
      }
    },
    {
      "type": "Feature",
      "geometry": {
        "type": "Point",
        "coordinates": [113.287298, 22.785668]
      },
      "properties": {
        "name": "河东私烤",
        "address": "佛山顺德区顺德新城区澄海路(近万科新城湾畔)",
        "phone": "(0757)22299008"
      }
    }
  ]
}
